----------------------------------------------------------------------------------
Date and Time: 5:04 PM


ATTITUDE {time_boot_ms : 137194, roll : -0.020120494067668915, pitch : -0.02666998654603958, yaw : 3.075364589691162, rollspeed : 0.0024416232481598854, pitchspeed : -0.0006466053891927004, yawspeed : -0.0005270588444545865}
----------------------------------------------------------------------------------
VFR_HUD {airspeed : 0.038108907639980316, groundspeed : 0.021291406825184822, heading : 176, throttle : 0, alt : 363.1300048828125, climb : 0.03160640597343445}
----------------------------------------------------------------------------------
BATTERY_STATUS {id : 0, battery_function : 0, type : 0, temperature : 32767, voltages : [16085, 65535, 65535, 65535, 65535, 65535, 65535, 65535, 65535, 65535], current_battery : 0, current_consumed : 0, energy_consumed : 0, battery_remaining : 100, time_remaining : 0, charge_state : 1, voltages_ext : [0, 0, 0, 0], mode : 0, fault_bitmask : 0}
----------------------------------------------------------------------------------
GLOBAL_POSITION_INT {time_boot_ms : 141747, lat : 356134992, lon : -974658588, alt : 363170, relative_alt : 3079, vx : 0, vy : 0, vz : -3, hdg : 17628}
----------------------------------------------------------------------------------
ATTITUDE {time_boot_ms : 146294, roll : -0.020545989274978638, pitch : -0.02660325914621353, yaw : 3.074692964553833, rollspeed : 0.00045058049727231264, pitchspeed : -0.0018439050763845444, yawspeed : -0.00044955837074667215}
----------------------------------------------------------------------------------
VFR_HUD {airspeed : 0.015964679419994354, groundspeed : 0.008130118250846863, heading : 176, throttle : 0, alt : 363.3599853515625, climb : 0.013739438727498055}
----------------------------------------------------------------------------------
BATTERY_STATUS {id : 0, battery_function : 0, type : 0, temperature : 32767, voltages : [16083, 65535, 65535, 65535, 65535, 65535, 65535, 65535, 65535, 65535], current_battery : 0, current_consumed : 0, energy_consumed : 0, battery_remaining : 100, time_remaining : 0, charge_state : 1, voltages_ext : [0, 0, 0, 0], mode : 0, fault_bitmask : 0}
----------------------------------------------------------------------------------
GLOBAL_POSITION_INT {time_boot_ms : 149366, lat : 356134990, lon : -974658589, alt : 363370, relative_alt : 3275, vx : 0, vy : 0, vz : 1, hdg : 17617}
----------------------------------------------------------------------------------
ATTITUDE {time_boot_ms : 150774, roll : -0.020338688045740128, pitch : -0.026469716802239418, yaw : 3.0753061771392822, rollspeed : 0.0006587663083337247, pitchspeed : -0.0018316397909075022, yawspeed : 0.0020995689556002617}
----------------------------------------------------------------------------------
VFR_HUD {airspeed : 0.009602844715118408, groundspeed : 0.004414712078869343, heading : 176, throttle : 0, alt : 363.4100036621094, climb : -0.008527892641723156}
----------------------------------------------------------------------------------
BATTERY_STATUS {id : 0, battery_function : 0, type : 0, temperature : 32767, voltages : [16083, 65535, 65535, 65535, 65535, 65535, 65535, 65535, 65535, 65535], current_battery : 0, current_consumed : 0, energy_consumed : 0, battery_remaining : 100, time_remaining : 0, charge_state : 1, voltages_ext : [0, 0, 0, 0], mode : 0, fault_bitmask : 0}
----------------------------------------------------------------------------------
GLOBAL_POSITION_INT {time_boot_ms : 157404, lat : 356134994, lon : -974658595, alt : 363510, relative_alt : 3415, vx : -1, vy : 0, vz : 0, hdg : 17593}
----------------------------------------------------------------------------------
ATTITUDE {time_boot_ms : 157644, roll : -0.020718902349472046, pitch : -0.02739672362804413, yaw : 3.070650339126587, rollspeed : -0.00026347453240305185, pitchspeed : -0.0016506491228938103, yawspeed : 0.0014413297176361084}
----------------------------------------------------------------------------------
VFR_HUD {airspeed : 0.01566414348781109, groundspeed : 0.014949936419725418, heading : 175, throttle : 0, alt : 363.5099792480469, climb : -0.004675982519984245}
----------------------------------------------------------------------------------
BATTERY_STATUS {id : 0, battery_function : 0, type : 0, temperature : 32767, voltages : [16082, 65535, 65535, 65535, 65535, 65535, 65535, 65535, 65535, 65535], current_battery : 0, current_consumed : 0, energy_consumed : 0, battery_remaining : 100, time_remaining : 0, charge_state : 1, voltages_ext : [0, 0, 0, 0], mode : 0, fault_bitmask : 0}
----------------------------------------------------------------------------------
GLOBAL_POSITION_INT {time_boot_ms : 182386, lat : 356135005, lon : -974658592, alt : 363840, relative_alt : 3746, vx : 0, vy : 0, vz : -1, hdg : 17619}
----------------------------------------------------------------------------------
ATTITUDE {time_boot_ms : 189704, roll : -0.020749688148498535, pitch : -0.02636285498738289, yaw : 3.0781044960021973, rollspeed : -0.02878928743302822, pitchspeed : 0.02968534082174301, yawspeed : 0.006159177981317043}
----------------------------------------------------------------------------------
VFR_HUD {airspeed : 0.019894324243068695, groundspeed : 0.01844019442796707, heading : 177, throttle : 0, alt : 363.78997802734375, climb : -0.007466145325452089}
----------------------------------------------------------------------------------
BATTERY_STATUS {id : 0, battery_function : 0, type : 0, temperature : 32767, voltages : [16064, 65535, 65535, 65535, 65535, 65535, 65535, 65535, 65535, 65535], current_battery : 0, current_consumed : 0, energy_consumed : 0, battery_remaining : 100, time_remaining : 0, charge_state : 1, voltages_ext : [0, 0, 0, 0], mode : 0, fault_bitmask : 0}
----------------------------------------------------------------------------------
GLOBAL_POSITION_INT {time_boot_ms : 222947, lat : 356135009, lon : -974658612, alt : 364610, relative_alt : 665, vx : 0, vy : -18, vz : -56, hdg : 21106}
----------------------------------------------------------------------------------
ATTITUDE {time_boot_ms : 226264, roll : -0.0023326463997364044, pitch : -0.039303023368120193, yaw : -2.6091041564941406, rollspeed : 0.15242072939872742, pitchspeed : -0.16188636422157288, yawspeed : 0.16986003518104553}
----------------------------------------------------------------------------------
VFR_HUD {airspeed : 0.5385977029800415, groundspeed : 0.08523529022932053, heading : 210, throttle : 14, alt : 366.489990234375, climb : 0.5318105220794678}
----------------------------------------------------------------------------------
BATTERY_STATUS {id : 0, battery_function : 0, type : 0, temperature : 32767, voltages : [15828, 65535, 65535, 65535, 65535, 65535, 65535, 65535, 65535, 65535], current_battery : 0, current_consumed : 0, energy_consumed : 0, battery_remaining : 100, time_remaining : 0, charge_state : 1, voltages_ext : [0, 0, 0, 0], mode : 0, fault_bitmask : 0}
----------------------------------------------------------------------------------
GLOBAL_POSITION_INT {time_boot_ms : 313426, lat : 356135019, lon : -974658583, alt : 364430, relative_alt : 488, vx : 0, vy : 0, vz : 5, hdg : 22391}
----------------------------------------------------------------------------------
ATTITUDE {time_boot_ms : 335144, roll : -0.008135344833135605, pitch : 0.01874697394669056, yaw : -2.3301825523376465, rollspeed : -0.08459877967834473, pitchspeed : -0.028727907687425613, yawspeed : -0.11340709775686264}
----------------------------------------------------------------------------------
VFR_HUD {airspeed : 0.031224124133586884, groundspeed : 0.02668040804564953, heading : 226, throttle : 0, alt : 364.6999816894531, climb : -0.01622041128575802}
----------------------------------------------------------------------------------
BATTERY_STATUS {id : 0, battery_function : 0, type : 0, temperature : 32767, voltages : [14941, 65535, 65535, 65535, 65535, 65535, 65535, 65535, 65535, 65535], current_battery : 0, current_consumed : 0, energy_consumed : 0, battery_remaining : 100, time_remaining : 0, charge_state : 1, voltages_ext : [0, 0, 0, 0], mode : 0, fault_bitmask : 0}
----------------------------------------------------------------------------------
GLOBAL_POSITION_INT {time_boot_ms : 408367, lat : 356134984, lon : -974658511, alt : 380090, relative_alt : 14963, vx : 152, vy : -114, vz : -9, hdg : 14579}
----------------------------------------------------------------------------------
ATTITUDE {time_boot_ms : 412024, roll : -0.014448896050453186, pitch : -0.04959140717983246, yaw : 2.556987762451172, rollspeed : 0.19771221280097961, pitchspeed : -0.18773189187049866, yawspeed : 0.07567984610795975}
----------------------------------------------------------------------------------
VFR_HUD {airspeed : 0.2237405627965927, groundspeed : 0.22158919274806976, heading : 146, throttle : 19, alt : 380.0899963378906, climb : -0.030952684581279755}
----------------------------------------------------------------------------------
BATTERY_STATUS {id : 0, battery_function : 0, type : 0, temperature : 32767, voltages : [14742, 65535, 65535, 65535, 65535, 65535, 65535, 65535, 65535, 65535], current_battery : 0, current_consumed : 0, energy_consumed : 0, battery_remaining : 100, time_remaining : 0, charge_state : 1, voltages_ext : [0, 0, 0, 0], mode : 0, fault_bitmask : 0}
----------------------------------------------------------------------------------
GLOBAL_POSITION_INT {time_boot_ms : 415810, lat : 356135063, lon : -974658581, alt : 380180, relative_alt : 15055, vx : 0, vy : 3, vz : 46, hdg : 14614}
----------------------------------------------------------------------------------
ATTITUDE {time_boot_ms : 420944, roll : -0.026010852307081223, pitch : -0.04597540944814682, yaw : 2.5182671546936035, rollspeed : -0.014952766709029675, pitchspeed : 0.1226033940911293, yawspeed : 0.10353749245405197}
----------------------------------------------------------------------------------
VFR_HUD {airspeed : 0.4919549524784088, groundspeed : 0.1049022451043129, heading : 144, throttle : 18, alt : 374.8599853515625, climb : -0.48064038157463074}
----------------------------------------------------------------------------------
BATTERY_STATUS {id : 0, battery_function : 0, type : 0, temperature : 32767, voltages : [14815, 65535, 65535, 65535, 65535, 65535, 65535, 65535, 65535, 65535], current_battery : 0, current_consumed : 0, energy_consumed : 0, battery_remaining : 100, time_remaining : 0, charge_state : 1, voltages_ext : [0, 0, 0, 0], mode : 0, fault_bitmask : 0}
----------------------------------------------------------------------------------
GLOBAL_POSITION_INT {time_boot_ms : 428127, lat : 356135062, lon : -974658578, alt : 371330, relative_alt : 6201, vx : 8, vy : 0, vz : 55, hdg : 14388}
----------------------------------------------------------------------------------
ATTITUDE {time_boot_ms : 429884, roll : -0.0074768587946891785, pitch : -0.09618466347455978, yaw : 2.5422534942626953, rollspeed : 0.23536962270736694, pitchspeed : 0.05021756514906883, yawspeed : -0.07936950773000717}
----------------------------------------------------------------------------------
VFR_HUD {airspeed : 0.5002755522727966, groundspeed : 0.041045449674129486, heading : 145, throttle : 18, alt : 370.3699951171875, climb : -0.498588889837265}
----------------------------------------------------------------------------------
BATTERY_STATUS {id : 0, battery_function : 0, type : 0, temperature : 32767, voltages : [14703, 65535, 65535, 65535, 65535, 65535, 65535, 65535, 65535, 65535], current_battery : 0, current_consumed : 0, energy_consumed : 0, battery_remaining : 100, time_remaining : 0, charge_state : 1, voltages_ext : [0, 0, 0, 0], mode : 0, fault_bitmask : 0}
----------------------------------------------------------------------------------
GLOBAL_POSITION_INT {time_boot_ms : 433050, lat : 356135063, lon : -974658576, alt : 368890, relative_alt : 3761, vx : 3, vy : 8, vz : 58, hdg : 14469}
----------------------------------------------------------------------------------
ATTITUDE {time_boot_ms : 434384, roll : 0.008883558213710785, pitch : -0.0609990730881691, yaw : 2.52805495262146, rollspeed : -0.18845853209495544, pitchspeed : -0.0370485894382, yawspeed : 0.4444614052772522}
----------------------------------------------------------------------------------
VFR_HUD {airspeed : 0.5741094946861267, groundspeed : 0.0436980240046978, heading : 144, throttle : 19, alt : 368.1999816894531, climb : -0.5724440813064575}
----------------------------------------------------------------------------------
BATTERY_STATUS {id : 0, battery_function : 0, type : 0, temperature : 32767, voltages : [14981, 65535, 65535, 65535, 65535, 65535, 65535, 65535, 65535, 65535], current_battery : 0, current_consumed : 0, energy_consumed : 0, battery_remaining : 100, time_remaining : 0, charge_state : 1, voltages_ext : [0, 0, 0, 0], mode : 0, fault_bitmask : 0}
----------------------------------------------------------------------------------
GLOBAL_POSITION_INT {time_boot_ms : 442929, lat : 356135070, lon : -974658569, alt : 365280, relative_alt : 151, vx : 8, vy : 3, vz : 6, hdg : 14542}
----------------------------------------------------------------------------------
ATTITUDE {time_boot_ms : 445614, roll : 0.011482888832688332, pitch : -0.03491382300853729, yaw : 2.5380916595458984, rollspeed : 0.0006211691070348024, pitchspeed : -0.0010491434950381517, yawspeed : 0.0004576373612508178}
----------------------------------------------------------------------------------
VFR_HUD {airspeed : 0.037519585341215134, groundspeed : 0.01028464362025261, heading : 145, throttle : 0, alt : 365.2599792480469, climb : -0.03608248010277748}
----------------------------------------------------------------------------------
BATTERY_STATUS {id : 0, battery_function : 0, type : 0, temperature : 32767, voltages : [15650, 65535, 65535, 65535, 65535, 65535, 65535, 65535, 65535, 65535], current_battery : 0, current_consumed : 0, energy_consumed : 0, battery_remaining : 100, time_remaining : 0, charge_state : 1, voltages_ext : [0, 0, 0, 0], mode : 0, fault_bitmask : 0}
----------------------------------------------------------------------------------
GLOBAL_POSITION_INT {time_boot_ms : 459087, lat : 356135061, lon : -974658583, alt : 365320, relative_alt : 197, vx : 0, vy : 0, vz : 1, hdg : 14561}
----------------------------------------------------------------------------------
ATTITUDE {time_boot_ms : 468194, roll : 0.012122567743062973, pitch : -0.035411011427640915, yaw : 2.5467629432678223, rollspeed : -0.001251479727216065, pitchspeed : 2.193870022892952e-05, yawspeed : 0.0007564471452496946}
----------------------------------------------------------------------------------
VFR_HUD {airspeed : 0.008546640165150166, groundspeed : 0.006557794753462076, heading : 145, throttle : 0, alt : 365.3599853515625, climb : -0.005480910185724497}
----------------------------------------------------------------------------------
BATTERY_STATUS {id : 0, battery_function : 0, type : 0, temperature : 32767, voltages : [15670, 65535, 65535, 65535, 65535, 65535, 65535, 65535, 65535, 65535], current_battery : 0, current_consumed : 0, energy_consumed : 0, battery_remaining : 100, time_remaining : 0, charge_state : 1, voltages_ext : [0, 0, 0, 0], mode : 0, fault_bitmask : 0}
----------------------------------------------------------------------------------
GLOBAL_POSITION_INT {time_boot_ms : 476547, lat : 356135056, lon : -974658598, alt : 365420, relative_alt : 295, vx : 0, vy : 0, vz : 0, hdg : 14597}
----------------------------------------------------------------------------------
ATTITUDE {time_boot_ms : 481754, roll : 0.01144508458673954, pitch : -0.03468947857618332, yaw : 2.5487513542175293, rollspeed : 0.00022899307077750564, pitchspeed : -0.0011800462380051613, yawspeed : 0.0008813980966806412}
----------------------------------------------------------------------------------
VFR_HUD {airspeed : 0.021184410899877548, groundspeed : 0.01861647143959999, heading : 146, throttle : 0, alt : 365.3899841308594, climb : -0.01010970864444971}
----------------------------------------------------------------------------------
BATTERY_STATUS {id : 0, battery_function : 0, type : 0, temperature : 32767, voltages : [15681, 65535, 65535, 65535, 65535, 65535, 65535, 65535, 65535, 65535], current_battery : 0, current_consumed : 0, energy_consumed : 0, battery_remaining : 100, time_remaining : 0, charge_state : 1, voltages_ext : [0, 0, 0, 0], mode : 0, fault_bitmask : 0}
----------------------------------------------------------------------------------
GLOBAL_POSITION_INT {time_boot_ms : 486507, lat : 356135056, lon : -974658600, alt : 365400, relative_alt : 271, vx : 1, vy : 0, vz : 0, hdg : 14612}
----------------------------------------------------------------------------------
ATTITUDE {time_boot_ms : 488504, roll : 0.011839648708701134, pitch : -0.03541536629199982, yaw : 2.550307273864746, rollspeed : 0.0013757053529843688, pitchspeed : 0.001363105489872396, yawspeed : -0.0025076332967728376}
----------------------------------------------------------------------------------
VFR_HUD {airspeed : 0.007803076412528753, groundspeed : 0.006151025183498859, heading : 146, throttle : 0, alt : 365.44000244140625, climb : 0.0048013427294790745}
----------------------------------------------------------------------------------
BATTERY_STATUS {id : 0, battery_function : 0, type : 0, temperature : 32767, voltages : [15680, 65535, 65535, 65535, 65535, 65535, 65535, 65535, 65535, 65535], current_battery : 0, current_consumed : 0, energy_consumed : 0, battery_remaining : 100, time_remaining : 0, charge_state : 1, voltages_ext : [0, 0, 0, 0], mode : 0, fault_bitmask : 0}
----------------------------------------------------------------------------------
GLOBAL_POSITION_INT {time_boot_ms : 494007, lat : 356135052, lon : -974658599, alt : 365440, relative_alt : 318, vx : -1, vy : 0, vz : 0, hdg : 14618}
----------------------------------------------------------------------------------
ATTITUDE {time_boot_ms : 497584, roll : 0.012602725997567177, pitch : -0.035548046231269836, yaw : 2.552177906036377, rollspeed : -0.0002658700686879456, pitchspeed : -0.0007902798242866993, yawspeed : -0.0011508702300488949}
----------------------------------------------------------------------------------
VFR_HUD {airspeed : 0.014393361285328865, groundspeed : 0.01168385986238718, heading : 146, throttle : 0, alt : 365.4599914550781, climb : 0.008405729196965694}
----------------------------------------------------------------------------------
BATTERY_STATUS {id : 0, battery_function : 0, type : 0, temperature : 32767, voltages : [15691, 65535, 65535, 65535, 65535, 65535, 65535, 65535, 65535, 65535], current_battery : 0, current_consumed : 0, energy_consumed : 0, battery_remaining : 100, time_remaining : 0, charge_state : 1, voltages_ext : [0, 0, 0, 0], mode : 0, fault_bitmask : 0}
----------------------------------------------------------------------------------
GLOBAL_POSITION_INT {time_boot_ms : 501507, lat : 356135053, lon : -974658600, alt : 365490, relative_alt : 362, vx : 0, vy : 0, vz : 0, hdg : 14628}
----------------------------------------------------------------------------------
ATTITUDE {time_boot_ms : 504334, roll : 0.012887470424175262, pitch : -0.03561386466026306, yaw : 2.557703971862793, rollspeed : 0.0004087034612894058, pitchspeed : 0.0009140493348240852, yawspeed : 0.002912321127951145}
----------------------------------------------------------------------------------
VFR_HUD {airspeed : 0.014695337042212486, groundspeed : 0.008609132841229439, heading : 146, throttle : 0, alt : 365.5099792480469, climb : 0.0119094830006361}
----------------------------------------------------------------------------------
BATTERY_STATUS {id : 0, battery_function : 0, type : 0, temperature : 32767, voltages : [15687, 65535, 65535, 65535, 65535, 65535, 65535, 65535, 65535, 65535], current_battery : 0, current_consumed : 0, energy_consumed : 0, battery_remaining : 100, time_remaining : 0, charge_state : 1, voltages_ext : [0, 0, 0, 0], mode : 0, fault_bitmask : 0}
----------------------------------------------------------------------------------
GLOBAL_POSITION_INT {time_boot_ms : 508947, lat : 356135054, lon : -974658603, alt : 365520, relative_alt : 397, vx : 0, vy : 0, vz : 0, hdg : 14659}
----------------------------------------------------------------------------------
ATTITUDE {time_boot_ms : 511084, roll : 0.012044105678796768, pitch : -0.03601386025547981, yaw : 2.5590157508850098, rollspeed : -0.0025241696275770664, pitchspeed : -0.0020437128841876984, yawspeed : 0.00211001536808908}
----------------------------------------------------------------------------------
VFR_HUD {airspeed : 0.007673568092286587, groundspeed : 0.0023332368582487106, heading : 146, throttle : 0, alt : 365.5299987792969, climb : 0.007310242857784033}
----------------------------------------------------------------------------------
BATTERY_STATUS {id : 0, battery_function : 0, type : 0, temperature : 32767, voltages : [15687, 65535, 65535, 65535, 65535, 65535, 65535, 65535, 65535, 65535], current_battery : 0, current_consumed : 0, energy_consumed : 0, battery_remaining : 100, time_remaining : 0, charge_state : 1, voltages_ext : [0, 0, 0, 0], mode : 0, fault_bitmask : 0}
----------------------------------------------------------------------------------
GLOBAL_POSITION_INT {time_boot_ms : 513929, lat : 356135056, lon : -974658605, alt : 365540, relative_alt : 414, vx : 0, vy : 0, vz : 0, hdg : 14647}
----------------------------------------------------------------------------------
ATTITUDE {time_boot_ms : 517874, roll : 0.012527009472250938, pitch : -0.03606477379798889, yaw : 2.5569169521331787, rollspeed : -0.0004578889347612858, pitchspeed : -0.002500346163287759, yawspeed : -0.002422253368422389}
----------------------------------------------------------------------------------
VFR_HUD {airspeed : 0.012158039957284927, groundspeed : 0.011647526174783707, heading : 146, throttle : 0, alt : 365.55999755859375, climb : 0.0034861236345022917}
----------------------------------------------------------------------------------
BATTERY_STATUS {id : 0, battery_function : 0, type : 0, temperature : 32767, voltages : [15698, 65535, 65535, 65535, 65535, 65535, 65535, 65535, 65535, 65535], current_battery : 0, current_consumed : 0, energy_consumed : 0, battery_remaining : 100, time_remaining : 0, charge_state : 1, voltages_ext : [0, 0, 0, 0], mode : 0, fault_bitmask : 0}
----------------------------------------------------------------------------------
GLOBAL_POSITION_INT {time_boot_ms : 541407, lat : 356135066, lon : -974658614, alt : 365640, relative_alt : 511, vx : -1, vy : 0, vz : 0, hdg : 14625}
----------------------------------------------------------------------------------
ATTITUDE {time_boot_ms : 542724, roll : 0.01176614873111248, pitch : -0.03584088012576103, yaw : 2.553741216659546, rollspeed : 0.0015524002956226468, pitchspeed : -0.00118728238157928, yawspeed : 0.0013976749032735825}
----------------------------------------------------------------------------------
VFR_HUD {airspeed : 0.006148717366158962, groundspeed : 0.006148378364741802, heading : 146, throttle : 0, alt : 365.6399841308594, climb : 6.458293501054868e-05}
----------------------------------------------------------------------------------
BATTERY_STATUS {id : 0, battery_function : 0, type : 0, temperature : 32767, voltages : [15701, 65535, 65535, 65535, 65535, 65535, 65535, 65535, 65535, 65535], current_battery : 0, current_consumed : 0, energy_consumed : 0, battery_remaining : 100, time_remaining : 0, charge_state : 1, voltages_ext : [0, 0, 0, 0], mode : 0, fault_bitmask : 0}
----------------------------------------------------------------------------------
GLOBAL_POSITION_INT {time_boot_ms : 548907, lat : 356135073, lon : -974658616, alt : 365610, relative_alt : 485, vx : 1, vy : 0, vz : 0, hdg : 14632}
----------------------------------------------------------------------------------
ATTITUDE {time_boot_ms : 549534, roll : 0.011819697916507721, pitch : -0.035433150827884674, yaw : 2.5540623664855957, rollspeed : -0.0006568912649527192, pitchspeed : -0.0008405318949371576, yawspeed : 0.000108010892290622}
----------------------------------------------------------------------------------
VFR_HUD {airspeed : 0.009207118302583694, groundspeed : 0.008773954585194588, heading : 146, throttle : 0, alt : 365.6199951171875, climb : 0.0027908317279070616}
----------------------------------------------------------------------------------
BATTERY_STATUS {id : 0, battery_function : 0, type : 0, temperature : 32767, voltages : [15705, 65535, 65535, 65535, 65535, 65535, 65535, 65535, 65535, 65535], current_battery : 0, current_consumed : 0, energy_consumed : 0, battery_remaining : 100, time_remaining : 0, charge_state : 1, voltages_ext : [0, 0, 0, 0], mode : 0, fault_bitmask : 0}
----------------------------------------------------------------------------------
GLOBAL_POSITION_INT {time_boot_ms : 558567, lat : 356135070, lon : -974658618, alt : 365670, relative_alt : 541, vx : 0, vy : 0, vz : 0, hdg : 14646}
----------------------------------------------------------------------------------
ATTITUDE {time_boot_ms : 560664, roll : 0.01260838657617569, pitch : -0.034857869148254395, yaw : 2.555588483810425, rollspeed : 0.0005486378213390708, pitchspeed : 0.000369328074157238, yawspeed : 0.0032431804575026035}
----------------------------------------------------------------------------------
VFR_HUD {airspeed : 0.01327062863856554, groundspeed : 0.013166537508368492, heading : 146, throttle : 0, alt : 365.6600036621094, climb : 0.0016588842263445258}
----------------------------------------------------------------------------------
BATTERY_STATUS {id : 0, battery_function : 0, type : 0, temperature : 32767, voltages : [15706, 65535, 65535, 65535, 65535, 65535, 65535, 65535, 65535, 65535], current_battery : 0, current_consumed : 0, energy_consumed : 0, battery_remaining : 100, time_remaining : 0, charge_state : 1, voltages_ext : [0, 0, 0, 0], mode : 0, fault_bitmask : 0}
----------------------------------------------------------------------------------
GLOBAL_POSITION_INT {time_boot_ms : 566087, lat : 356135069, lon : -974658621, alt : 365680, relative_alt : 558, vx : 0, vy : 0, vz : 0, hdg : 14635}
----------------------------------------------------------------------------------
ATTITUDE {time_boot_ms : 567494, roll : 0.011932894587516785, pitch : -0.03509122133255005, yaw : 2.553492546081543, rollspeed : -0.002084704814478755, pitchspeed : 0.0003470734227448702, yawspeed : 0.0005836643395014107}
----------------------------------------------------------------------------------
VFR_HUD {airspeed : 0.012872639112174511, groundspeed : 0.008053729310631752, heading : 146, throttle : 0, alt : 365.6999816894531, climb : 0.01004202663898468}
----------------------------------------------------------------------------------
BATTERY_STATUS {id : 0, battery_function : 0, type : 0, temperature : 32767, voltages : [15701, 65535, 65535, 65535, 65535, 65535, 65535, 65535, 65535, 65535], current_battery : 0, current_consumed : 0, energy_consumed : 0, battery_remaining : 100, time_remaining : 0, charge_state : 1, voltages_ext : [0, 0, 0, 0], mode : 0, fault_bitmask : 0}
----------------------------------------------------------------------------------
GLOBAL_POSITION_INT {time_boot_ms : 583487, lat : 356135061, lon : -974658624, alt : 365740, relative_alt : 44, vx : 0, vy : 0, vz : 0, hdg : 14745}
----------------------------------------------------------------------------------
ATTITUDE {time_boot_ms : 587624, roll : 0.012610144913196564, pitch : -0.03605799749493599, yaw : 2.5697154998779297, rollspeed : -0.0014190988149493933, pitchspeed : 0.0006083145271986723, yawspeed : -0.000858523475471884}
----------------------------------------------------------------------------------
VFR_HUD {airspeed : 0.014412212185561657, groundspeed : 0.013881991617381573, heading : 147, throttle : 0, alt : 365.8199768066406, climb : -0.003873261623084545}
----------------------------------------------------------------------------------
BATTERY_STATUS {id : 0, battery_function : 0, type : 0, temperature : 32767, voltages : [15686, 65535, 65535, 65535, 65535, 65535, 65535, 65535, 65535, 65535], current_battery : 0, current_consumed : 0, energy_consumed : 0, battery_remaining : 100, time_remaining : 0, charge_state : 1, voltages_ext : [0, 0, 0, 0], mode : 0, fault_bitmask : 0}
----------------------------------------------------------------------------------
GLOBAL_POSITION_INT {time_boot_ms : 590887, lat : 356135061, lon : -974658623, alt : 365820, relative_alt : 128, vx : -1, vy : 0, vz : 1, hdg : 14710}
----------------------------------------------------------------------------------
ATTITUDE {time_boot_ms : 592204, roll : 0.012193702161312103, pitch : -0.036451421678066254, yaw : 2.566629648208618, rollspeed : 0.00022506201639771461, pitchspeed : -0.0029009643476456404, yawspeed : -0.0003659971116576344}
----------------------------------------------------------------------------------
VFR_HUD {airspeed : 0.018647611141204834, groundspeed : 0.01781775802373886, heading : 147, throttle : 0, alt : 365.8599853515625, climb : -0.005500992760062218}
----------------------------------------------------------------------------------
BATTERY_STATUS {id : 0, battery_function : 0, type : 0, temperature : 32767, voltages : [15700, 65535, 65535, 65535, 65535, 65535, 65535, 65535, 65535, 65535], current_battery : 0, current_consumed : 0, energy_consumed : 0, battery_remaining : 100, time_remaining : 0, charge_state : 1, voltages_ext : [0, 0, 0, 0], mode : 0, fault_bitmask : 0}
----------------------------------------------------------------------------------
GLOBAL_POSITION_INT {time_boot_ms : 598447, lat : 356135058, lon : -974658623, alt : 365850, relative_alt : 155, vx : -1, vy : 1, vz : 0, hdg : 14696}
----------------------------------------------------------------------------------
ATTITUDE {time_boot_ms : 599074, roll : 0.01254192739725113, pitch : -0.03593505918979645, yaw : 2.565070152282715, rollspeed : -0.001456250436604023, pitchspeed : 0.001483192085288465, yawspeed : -0.0008381036459468305}
----------------------------------------------------------------------------------
VFR_HUD {airspeed : 0.017366420477628708, groundspeed : 0.01735767163336277, heading : 146, throttle : 0, alt : 365.8599853515625, climb : 0.0005511615891009569}
----------------------------------------------------------------------------------
BATTERY_STATUS {id : 0, battery_function : 0, type : 0, temperature : 32767, voltages : [15701, 65535, 65535, 65535, 65535, 65535, 65535, 65535, 65535, 65535], current_battery : 0, current_consumed : 0, energy_consumed : 0, battery_remaining : 100, time_remaining : 0, charge_state : 1, voltages_ext : [0, 0, 0, 0], mode : 0, fault_bitmask : 0}
----------------------------------------------------------------------------------
GLOBAL_POSITION_INT {time_boot_ms : 603327, lat : 356135057, lon : -974658627, alt : 365850, relative_alt : 150, vx : 0, vy : -1, vz : 1, hdg : 14686}
----------------------------------------------------------------------------------
ATTITUDE {time_boot_ms : 603454, roll : 0.012310067191720009, pitch : -0.03560565412044525, yaw : 2.5632376670837402, rollspeed : 0.0009074428817257285, pitchspeed : -0.0015649637207388878, yawspeed : 9.347271407023072e-05}
----------------------------------------------------------------------------------
VFR_HUD {airspeed : 0.01824941299855709, groundspeed : 0.012853175401687622, heading : 146, throttle : 0, alt : 365.8500061035156, climb : -0.012955191545188427}
----------------------------------------------------------------------------------
BATTERY_STATUS {id : 0, battery_function : 0, type : 0, temperature : 32767, voltages : [15707, 65535, 65535, 65535, 65535, 65535, 65535, 65535, 65535, 65535], current_battery : 0, current_consumed : 0, energy_consumed : 0, battery_remaining : 100, time_remaining : 0, charge_state : 1, voltages_ext : [0, 0, 0, 0], mode : 0, fault_bitmask : 0}
----------------------------------------------------------------------------------
GLOBAL_POSITION_INT {time_boot_ms : 608267, lat : 356135055, lon : -974658627, alt : 365850, relative_alt : 19, vx : -1, vy : 1, vz : 0, hdg : 14678}
----------------------------------------------------------------------------------
ATTITUDE {time_boot_ms : 612394, roll : 0.01265527494251728, pitch : -0.03366132453083992, yaw : 2.5729615688323975, rollspeed : 0.11081390827894211, pitchspeed : 0.020809907466173172, yawspeed : -0.019085273146629333}
----------------------------------------------------------------------------------
VFR_HUD {airspeed : 0.01900106482207775, groundspeed : 0.01900077611207962, heading : 147, throttle : 0, alt : 365.8599853515625, climb : -0.00010470835695741698}
----------------------------------------------------------------------------------
BATTERY_STATUS {id : 0, battery_function : 0, type : 0, temperature : 32767, voltages : [14655, 65535, 65535, 65535, 65535, 65535, 65535, 65535, 65535, 65535], current_battery : 0, current_consumed : 0, energy_consumed : 0, battery_remaining : 100, time_remaining : 0, charge_state : 1, voltages_ext : [0, 0, 0, 0], mode : 0, fault_bitmask : 0}
----------------------------------------------------------------------------------
GLOBAL_POSITION_INT {time_boot_ms : 618150, lat : 356135059, lon : -974658615, alt : 369230, relative_alt : 3399, vx : -9, vy : -7, vz : -187, hdg : 15915}
----------------------------------------------------------------------------------
ATTITUDE {time_boot_ms : 619144, roll : -0.015306532382965088, pitch : -0.006694899871945381, yaw : 2.9003243446350098, rollspeed : 0.25945624709129333, pitchspeed : -0.06612680107355118, yawspeed : 0.12058001756668091}
----------------------------------------------------------------------------------
VFR_HUD {airspeed : 1.640210509300232, groundspeed : 0.11499956995248795, heading : 166, throttle : 17, alt : 370.8699951171875, climb : 1.6361740827560425}
----------------------------------------------------------------------------------
BATTERY_STATUS {id : 0, battery_function : 0, type : 0, temperature : 32767, voltages : [14752, 65535, 65535, 65535, 65535, 65535, 65535, 65535, 65535, 65535], current_battery : 0, current_consumed : 0, energy_consumed : 0, battery_remaining : 100, time_remaining : 0, charge_state : 1, voltages_ext : [0, 0, 0, 0], mode : 0, fault_bitmask : 0}
----------------------------------------------------------------------------------
GLOBAL_POSITION_INT {time_boot_ms : 628127, lat : 356133828, lon : -974657513, alt : 373050, relative_alt : 7215, vx : -230, vy : 169, vz : 25, hdg : 14107}
----------------------------------------------------------------------------------
ATTITUDE {time_boot_ms : 628144, roll : -0.005968600511550903, pitch : 0.04044506698846817, yaw : 2.465012550354004, rollspeed : 0.010895206592977047, pitchspeed : -0.05056071653962135, yawspeed : 0.04060295969247818}
----------------------------------------------------------------------------------
VFR_HUD {airspeed : 2.863898754119873, groundspeed : 2.8504509925842285, heading : 141, throttle : 15, alt : 373.04998779296875, climb : -0.2772091031074524}
----------------------------------------------------------------------------------
BATTERY_STATUS {id : 0, battery_function : 0, type : 0, temperature : 32767, voltages : [14651, 65535, 65535, 65535, 65535, 65535, 65535, 65535, 65535, 65535], current_battery : 0, current_consumed : 0, energy_consumed : 0, battery_remaining : 100, time_remaining : 0, charge_state : 1, voltages_ext : [0, 0, 0, 0], mode : 0, fault_bitmask : 0}
----------------------------------------------------------------------------------
GLOBAL_POSITION_INT {time_boot_ms : 640607, lat : 356133651, lon : -974656327, alt : 372840, relative_alt : 7007, vx : -22, vy : -13, vz : 4, hdg : 9100}
----------------------------------------------------------------------------------
ATTITUDE {time_boot_ms : 641645, roll : 0.19019204378128052, pitch : -0.15203021466732025, yaw : 1.9522345066070557, rollspeed : 0.13845781981945038, pitchspeed : -0.1341007798910141, yawspeed : 1.1032301187515259}
----------------------------------------------------------------------------------
VFR_HUD {airspeed : 1.120099425315857, groundspeed : 1.118942141532898, heading : 111, throttle : 17, alt : 372.8899841308594, climb : -0.050906017422676086}
----------------------------------------------------------------------------------
BATTERY_STATUS {id : 0, battery_function : 0, type : 0, temperature : 32767, voltages : [14632, 65535, 65535, 65535, 65535, 65535, 65535, 65535, 65535, 65535], current_battery : 0, current_consumed : 0, energy_consumed : 0, battery_remaining : 100, time_remaining : 0, charge_state : 1, voltages_ext : [0, 0, 0, 0], mode : 0, fault_bitmask : 0}
----------------------------------------------------------------------------------
GLOBAL_POSITION_INT {time_boot_ms : 648087, lat : 356132512, lon : -974656342, alt : 372810, relative_alt : 6971, vx : -6, vy : 1, vz : -6, hdg : 18127}
----------------------------------------------------------------------------------
ATTITUDE {time_boot_ms : 648374, roll : -0.01301271840929985, pitch : -0.04269632697105408, yaw : -3.1304478645324707, rollspeed : 0.04907675459980965, pitchspeed : -0.05001944303512573, yawspeed : -0.031652018427848816}
----------------------------------------------------------------------------------
VFR_HUD {airspeed : 0.0442582406103611, groundspeed : 0.041026126593351364, heading : 180, throttle : 19, alt : 372.8199768066406, climb : 0.01660267263650894}
----------------------------------------------------------------------------------
BATTERY_STATUS {id : 0, battery_function : 0, type : 0, temperature : 32767, voltages : [14582, 65535, 65535, 65535, 65535, 65535, 65535, 65535, 65535, 65535], current_battery : 0, current_consumed : 0, energy_consumed : 0, battery_remaining : 100, time_remaining : 0, charge_state : 1, voltages_ext : [0, 0, 0, 0], mode : 0, fault_bitmask : 0}
----------------------------------------------------------------------------------
GLOBAL_POSITION_INT {time_boot_ms : 662950, lat : 356132961, lon : -974658070, alt : 372920, relative_alt : 7089, vx : 280, vy : 3, vz : 4, hdg : 35844}
----------------------------------------------------------------------------------
ATTITUDE {time_boot_ms : 668844, roll : 0.10497602075338364, pitch : -0.00825879443436861, yaw : 0.03625854477286339, rollspeed : -0.24378247559070587, pitchspeed : 0.3042931854724884, yawspeed : -0.16279013454914093}
----------------------------------------------------------------------------------
VFR_HUD {airspeed : 0.18766893446445465, groundspeed : 0.12872514128684998, heading : 2, throttle : 18, alt : 372.79998779296875, climb : 0.13656304776668549}
----------------------------------------------------------------------------------
BATTERY_STATUS {id : 0, battery_function : 0, type : 0, temperature : 32767, voltages : [14302, 65535, 65535, 65535, 65535, 65535, 65535, 65535, 65535, 65535], current_battery : 0, current_consumed : 0, energy_consumed : 0, battery_remaining : 100, time_remaining : 0, charge_state : 1, voltages_ext : [0, 0, 0, 0], mode : 0, fault_bitmask : 0}
----------------------------------------------------------------------------------
GLOBAL_POSITION_INT {time_boot_ms : 673107, lat : 356133667, lon : -974658045, alt : 378730, relative_alt : 12893, vx : 16, vy : -14, vz : -202, hdg : 190}
----------------------------------------------------------------------------------
ATTITUDE {time_boot_ms : 673424, roll : 0.051444217562675476, pitch : -0.10629705339670181, yaw : 0.011999867856502533, rollspeed : -0.0019279074622318149, pitchspeed : -0.19157074391841888, yawspeed : 0.14742952585220337}
----------------------------------------------------------------------------------
VFR_HUD {airspeed : 1.8599255084991455, groundspeed : 0.43430230021476746, heading : 0, throttle : 18, alt : 379.3299865722656, climb : 1.8085088729858398}
----------------------------------------------------------------------------------
BATTERY_STATUS {id : 0, battery_function : 0, type : 0, temperature : 32767, voltages : [14400, 65535, 65535, 65535, 65535, 65535, 65535, 65535, 65535, 65535], current_battery : 0, current_consumed : 0, energy_consumed : 0, battery_remaining : 100, time_remaining : 0, charge_state : 1, voltages_ext : [0, 0, 0, 0], mode : 0, fault_bitmask : 0}
----------------------------------------------------------------------------------
GLOBAL_POSITION_INT {time_boot_ms : 695629, lat : 356135049, lon : -974658618, alt : 373600, relative_alt : 7766, vx : 5, vy : 5, vz : 52, hdg : 35993}
----------------------------------------------------------------------------------
ATTITUDE {time_boot_ms : 700564, roll : 0.08685193210840225, pitch : -0.0013656439259648323, yaw : 0.0023302517365664244, rollspeed : -0.17995525896549225, pitchspeed : -0.060878243297338486, yawspeed : 0.18097613751888275}
----------------------------------------------------------------------------------
VFR_HUD {airspeed : 0.6317874789237976, groundspeed : 0.08825743943452835, heading : 0, throttle : 18, alt : 371.19000244140625, climb : -0.6255925893783569}
----------------------------------------------------------------------------------
BATTERY_STATUS {id : 0, battery_function : 0, type : 0, temperature : 32767, voltages : [14473, 65535, 65535, 65535, 65535, 65535, 65535, 65535, 65535, 65535], current_battery : 0, current_consumed : 0, energy_consumed : 0, battery_remaining : 100, time_remaining : 0, charge_state : 1, voltages_ext : [0, 0, 0, 0], mode : 0, fault_bitmask : 0}
----------------------------------------------------------------------------------
GLOBAL_POSITION_INT {time_boot_ms : 705627, lat : 356135058, lon : -974658623, alt : 368530, relative_alt : 2697, vx : -6, vy : 1, vz : 39, hdg : 201}
----------------------------------------------------------------------------------
ATTITUDE {time_boot_ms : 711794, roll : 0.019736453890800476, pitch : -0.0013243546709418297, yaw : 0.000910271774046123, rollspeed : -0.07855264097452164, pitchspeed : 0.009264991618692875, yawspeed : -0.05046337470412254}
----------------------------------------------------------------------------------
VFR_HUD {airspeed : 0.031068935990333557, groundspeed : 0.030853088945150375, heading : 0, throttle : 0, alt : 366.239990234375, climb : -0.003655914217233658}
----------------------------------------------------------------------------------
BATTERY_STATUS {id : 0, battery_function : 0, type : 0, temperature : 32767, voltages : [15329, 65535, 65535, 65535, 65535, 65535, 65535, 65535, 65535, 65535], current_battery : 0, current_consumed : 0, energy_consumed : 0, battery_remaining : 100, time_remaining : 0, charge_state : 1, voltages_ext : [0, 0, 0, 0], mode : 0, fault_bitmask : 0}
----------------------------------------------------------------------------------
GLOBAL_POSITION_INT {time_boot_ms : 725624, lat : 356135053, lon : -974658619, alt : 366010, relative_alt : 176, vx : 0, vy : 0, vz : -1, hdg : 111}
----------------------------------------------------------------------------------
ATTITUDE {time_boot_ms : 727684, roll : 0.01984376460313797, pitch : -0.0017215944826602936, yaw : 0.01758667267858982, rollspeed : 0.0012387159513309598, pitchspeed : -0.0008263299241662025, yawspeed : -0.0005704520153813064}
----------------------------------------------------------------------------------
VFR_HUD {airspeed : 0.028410430997610092, groundspeed : 0.013889063149690628, heading : 1, throttle : 0, alt : 366.0199890136719, climb : 0.024783998727798462}
----------------------------------------------------------------------------------
BATTERY_STATUS {id : 0, battery_function : 0, type : 0, temperature : 32767, voltages : [15338, 65535, 65535, 65535, 65535, 65535, 65535, 65535, 65535, 65535], current_battery : 0, current_consumed : 0, energy_consumed : 0, battery_remaining : 100, time_remaining : 0, charge_state : 1, voltages_ext : [0, 0, 0, 0], mode : 0, fault_bitmask : 0}
----------------------------------------------------------------------------------
GLOBAL_POSITION_INT {time_boot_ms : 733047, lat : 356135053, lon : -974658616, alt : 366040, relative_alt : 207, vx : 0, vy : 1, vz : -1, hdg : 83}
----------------------------------------------------------------------------------
ATTITUDE {time_boot_ms : 734494, roll : 0.020788582041859627, pitch : -0.001541338860988617, yaw : 0.014782280661165714, rollspeed : 0.00204935809597373, pitchspeed : -0.0015538798179477453, yawspeed : 8.560709829907864e-05}
----------------------------------------------------------------------------------
VFR_HUD {airspeed : 0.010927117429673672, groundspeed : 0.008114132098853588, heading : 0, throttle : 0, alt : 365.989990234375, climb : 0.007318658288568258}
----------------------------------------------------------------------------------
BATTERY_STATUS {id : 0, battery_function : 0, type : 0, temperature : 32767, voltages : [15345, 65535, 65535, 65535, 65535, 65535, 65535, 65535, 65535, 65535], current_battery : 0, current_consumed : 0, energy_consumed : 0, battery_remaining : 100, time_remaining : 0, charge_state : 1, voltages_ext : [0, 0, 0, 0], mode : 0, fault_bitmask : 0}
----------------------------------------------------------------------------------
GLOBAL_POSITION_INT {time_boot_ms : 743069, lat : 356135052, lon : -974658610, alt : 366000, relative_alt : 160, vx : 0, vy : 0, vz : 0, hdg : 41}
----------------------------------------------------------------------------------
ATTITUDE {time_boot_ms : 743574, roll : 0.020455215126276016, pitch : -0.0018265368416905403, yaw : 0.006929089315235615, rollspeed : -0.00011519517283886671, pitchspeed : -0.0022657576482743025, yawspeed : 0.0005031994078308344}
----------------------------------------------------------------------------------
VFR_HUD {airspeed : 0.011098828166723251, groundspeed : 0.00446768943220377, heading : 0, throttle : 0, alt : 366.0, climb : 0.010159908793866634}
----------------------------------------------------------------------------------
BATTERY_STATUS {id : 0, battery_function : 0, type : 0, temperature : 32767, voltages : [15349, 65535, 65535, 65535, 65535, 65535, 65535, 65535, 65535, 65535], current_battery : 0, current_consumed : 0, energy_consumed : 0, battery_remaining : 100, time_remaining : 0, charge_state : 1, voltages_ext : [0, 0, 0, 0], mode : 0, fault_bitmask : 0}
----------------------------------------------------------------------------------
GLOBAL_POSITION_INT {time_boot_ms : 748047, lat : 356135049, lon : -974658609, alt : 366000, relative_alt : 160, vx : 0, vy : 0, vz : 0, hdg : 31}
----------------------------------------------------------------------------------
ATTITUDE {time_boot_ms : 750324, roll : 0.020705945789813995, pitch : -0.002078508958220482, yaw : 0.006244685035198927, rollspeed : -0.0006288342410698533, pitchspeed : 0.0005716788582503796, yawspeed : -0.0004177118535153568}
----------------------------------------------------------------------------------
VFR_HUD {airspeed : 0.023914238438010216, groundspeed : 0.00935283862054348, heading : 0, throttle : 0, alt : 366.04998779296875, climb : 0.022009434178471565}
----------------------------------------------------------------------------------
BATTERY_STATUS {id : 0, battery_function : 0, type : 0, temperature : 32767, voltages : [15359, 65535, 65535, 65535, 65535, 65535, 65535, 65535, 65535, 65535], current_battery : 0, current_consumed : 0, energy_consumed : 0, battery_remaining : 100, time_remaining : 0, charge_state : 1, voltages_ext : [0, 0, 0, 0], mode : 0, fault_bitmask : 0}
----------------------------------------------------------------------------------
GLOBAL_POSITION_INT {time_boot_ms : 760587, lat : 356135048, lon : -974658613, alt : 366110, relative_alt : 273, vx : 0, vy : 0, vz : 0, hdg : 35964}
----------------------------------------------------------------------------------
ATTITUDE {time_boot_ms : 761674, roll : 0.020924275740981102, pitch : -0.0018445858731865883, yaw : -0.0069691818207502365, rollspeed : 0.0008196396520361304, pitchspeed : -0.001070348545908928, yawspeed : 0.0012319633970037103}
----------------------------------------------------------------------------------
VFR_HUD {airspeed : 0.008630052208900452, groundspeed : 0.0048007657751441, heading : 359, throttle : 0, alt : 366.1399841308594, climb : -0.007171502336859703}
----------------------------------------------------------------------------------
BATTERY_STATUS {id : 0, battery_function : 0, type : 0, temperature : 32767, voltages : [15367, 65535, 65535, 65535, 65535, 65535, 65535, 65535, 65535, 65535], current_battery : 0, current_consumed : 0, energy_consumed : 0, battery_remaining : 100, time_remaining : 0, charge_state : 1, voltages_ext : [0, 0, 0, 0], mode : 0, fault_bitmask : 0}
----------------------------------------------------------------------------------
GLOBAL_POSITION_INT {time_boot_ms : 780467, lat : 356135054, lon : -974658607, alt : 366270, relative_alt : 433, vx : 0, vy : 0, vz : -1, hdg : 35881}
----------------------------------------------------------------------------------
ATTITUDE {time_boot_ms : 788574, roll : 0.019922588020563126, pitch : -0.0021031396463513374, yaw : -0.026111852377653122, rollspeed : -0.000805224699433893, pitchspeed : 0.0003707357682287693, yawspeed : -0.0018392071360722184}
----------------------------------------------------------------------------------
VFR_HUD {airspeed : 0.012830195017158985, groundspeed : 0.007200872525572777, heading : 358, throttle : 0, alt : 366.2099914550781, climb : -0.010618914850056171}
----------------------------------------------------------------------------------
BATTERY_STATUS {id : 0, battery_function : 0, type : 0, temperature : 32767, voltages : [15369, 65535, 65535, 65535, 65535, 65535, 65535, 65535, 65535, 65535], current_battery : 0, current_consumed : 0, energy_consumed : 0, battery_remaining : 100, time_remaining : 0, charge_state : 1, voltages_ext : [0, 0, 0, 0], mode : 0, fault_bitmask : 0}
----------------------------------------------------------------------------------
GLOBAL_POSITION_INT {time_boot_ms : 797887, lat : 356135051, lon : -974658616, alt : 366160, relative_alt : 328, vx : 0, vy : 0, vz : 0, hdg : 35831}
----------------------------------------------------------------------------------
ATTITUDE {time_boot_ms : 799744, roll : 0.02088329941034317, pitch : -0.0017919167876243591, yaw : -0.029558492824435234, rollspeed : -0.00034335284726694226, pitchspeed : -9.255926124751568e-05, yawspeed : -0.002327836351469159}
----------------------------------------------------------------------------------
VFR_HUD {airspeed : 0.01343121100217104, groundspeed : 0.010319068096578121, heading : 358, throttle : 0, alt : 366.1499938964844, climb : -0.008597341366112232}
----------------------------------------------------------------------------------
BATTERY_STATUS {id : 0, battery_function : 0, type : 0, temperature : 32767, voltages : [15368, 65535, 65535, 65535, 65535, 65535, 65535, 65535, 65535, 65535], current_battery : 0, current_consumed : 0, energy_consumed : 0, battery_remaining : 100, time_remaining : 0, charge_state : 1, voltages_ext : [0, 0, 0, 0], mode : 0, fault_bitmask : 0}
----------------------------------------------------------------------------------
GLOBAL_POSITION_INT {time_boot_ms : 820187, lat : 356135052, lon : -974658627, alt : 366340, relative_alt : 504, vx : 0, vy : -1, vz : 0, hdg : 35792}
----------------------------------------------------------------------------------
ATTITUDE {time_boot_ms : 822284, roll : 0.020462075248360634, pitch : -0.001002313569188118, yaw : -0.03551999852061272, rollspeed : 0.002142996061593294, pitchspeed : 0.0015778836095705628, yawspeed : -3.714946797117591e-05}
----------------------------------------------------------------------------------
VFR_HUD {airspeed : 0.009523282758891582, groundspeed : 0.00918122474104166, heading : 357, throttle : 0, alt : 366.3699951171875, climb : 0.0025294360239058733}
----------------------------------------------------------------------------------
BATTERY_STATUS {id : 0, battery_function : 0, type : 0, temperature : 32767, voltages : [14281, 65535, 65535, 65535, 65535, 65535, 65535, 65535, 65535, 65535], current_battery : 0, current_consumed : 0, energy_consumed : 0, battery_remaining : 100, time_remaining : 0, charge_state : 1, voltages_ext : [0, 0, 0, 0], mode : 0, fault_bitmask : 0}
----------------------------------------------------------------------------------
GLOBAL_POSITION_INT {time_boot_ms : 907707, lat : 356131440, lon : -974656305, alt : 373380, relative_alt : 6869, vx : 3, vy : -8, vz : -14, hdg : 8961}
----------------------------------------------------------------------------------
ATTITUDE {time_boot_ms : 912704, roll : -0.05659959465265274, pitch : -0.03314078599214554, yaw : -2.198634624481201, rollspeed : 0.039272550493478775, pitchspeed : 0.06234076991677284, yawspeed : 0.06568165868520737}
----------------------------------------------------------------------------------
VFR_HUD {airspeed : 2.2981069087982178, groundspeed : 2.2743020057678223, heading : 234, throttle : 19, alt : 373.16998291015625, climb : 0.3299188017845154}
----------------------------------------------------------------------------------
BATTERY_STATUS {id : 0, battery_function : 0, type : 0, temperature : 32767, voltages : [14225, 65535, 65535, 65535, 65535, 65535, 65535, 65535, 65535, 65535], current_battery : 0, current_consumed : 0, energy_consumed : 0, battery_remaining : 100, time_remaining : 0, charge_state : 1, voltages_ext : [0, 0, 0, 0], mode : 0, fault_bitmask : 0}
----------------------------------------------------------------------------------
GLOBAL_POSITION_INT {time_boot_ms : 917627, lat : 356130867, lon : -974657233, alt : 372650, relative_alt : 6133, vx : 4, vy : 8, vz : 61, hdg : 23081}
----------------------------------------------------------------------------------
ATTITUDE {time_boot_ms : 919454, roll : -0.04701654613018036, pitch : 0.007789142429828644, yaw : -2.270683765411377, rollspeed : 0.12978526949882507, pitchspeed : 0.011754436418414116, yawspeed : -0.21400374174118042}
----------------------------------------------------------------------------------
VFR_HUD {airspeed : 0.5986279845237732, groundspeed : 0.09316320717334747, heading : 230, throttle : 21, alt : 370.6199951171875, climb : -0.5913341045379639}
----------------------------------------------------------------------------------
BATTERY_STATUS {id : 0, battery_function : 0, type : 0, temperature : 32767, voltages : [14255, 65535, 65535, 65535, 65535, 65535, 65535, 65535, 65535, 65535], current_battery : 0, current_consumed : 0, energy_consumed : 0, battery_remaining : 100, time_remaining : 0, charge_state : 1, voltages_ext : [0, 0, 0, 0], mode : 0, fault_bitmask : 0}
----------------------------------------------------------------------------------
GLOBAL_POSITION_INT {time_boot_ms : 937487, lat : 356130865, lon : -974657212, alt : 366430, relative_alt : -84, vx : 0, vy : -1, vz : 3, hdg : 22932}
----------------------------------------------------------------------------------
ATTITUDE {time_boot_ms : 955494, roll : 0.006999904289841652, pitch : -0.0028322041034698486, yaw : -2.277326822280884, rollspeed : -0.0019466851372271776, pitchspeed : -0.00031027686782181263, yawspeed : -0.0009618490003049374}
----------------------------------------------------------------------------------
VFR_HUD {airspeed : 0.014591285027563572, groundspeed : 0.014552240259945393, heading : 229, throttle : 0, alt : 366.5899963378906, climb : -0.00106672418769449}
----------------------------------------------------------------------------------
BATTERY_STATUS {id : 0, battery_function : 0, type : 0, temperature : 32767, voltages : [15184, 65535, 65535, 65535, 65535, 65535, 65535, 65535, 65535, 65535], current_battery : 0, current_consumed : 0, energy_consumed : 0, battery_remaining : 100, time_remaining : 0, charge_state : 1, voltages_ext : [0, 0, 0, 0], mode : 0, fault_bitmask : 0}
----------------------------------------------------------------------------------
GLOBAL_POSITION_INT {time_boot_ms : 972267, lat : 356130856, lon : -974657202, alt : 366710, relative_alt : 191, vx : 0, vy : 0, vz : 0, hdg : 22979}
----------------------------------------------------------------------------------
ATTITUDE {time_boot_ms : 1065704, roll : -0.0050940848886966705, pitch : -0.2406863272190094, yaw : 0.2138291299343109, rollspeed : -0.08787801116704941, pitchspeed : 0.041879888623952866, yawspeed : -0.12918530404567719}
----------------------------------------------------------------------------------
VFR_HUD {airspeed : 1.3772228956222534, groundspeed : 1.37544846534729, heading : 12, throttle : 0, alt : 368.3399963378906, climb : -0.06989096850156784}
----------------------------------------------------------------------------------
BATTERY_STATUS {id : 0, battery_function : 0, type : 0, temperature : 32767, voltages : [15195, 65535, 65535, 65535, 65535, 65535, 65535, 65535, 65535, 65535], current_battery : 0, current_consumed : 0, energy_consumed : 0, battery_remaining : 100, time_remaining : 0, charge_state : 1, voltages_ext : [0, 0, 0, 0], mode : 0, fault_bitmask : 0}
----------------------------------------------------------------------------------
GLOBAL_POSITION_INT {time_boot_ms : 1076487, lat : 356132821, lon : -974658112, alt : 368510, relative_alt : 1993, vx : 135, vy : -69, vz : -7, hdg : 2443}
----------------------------------------------------------------------------------
ATTITUDE {time_boot_ms : 1077054, roll : -0.018197353929281235, pitch : -0.2113557606935501, yaw : 0.6060078144073486, rollspeed : -0.09858646988868713, pitchspeed : -0.3471378684043884, yawspeed : 0.5567175149917603}
----------------------------------------------------------------------------------
VFR_HUD {airspeed : 1.1667431592941284, groundspeed : 1.1344773769378662, heading : 34, throttle : 0, alt : 368.4700012207031, climb : -0.2724896967411041}
----------------------------------------------------------------------------------
BATTERY_STATUS {id : 0, battery_function : 0, type : 0, temperature : 32767, voltages : [15201, 65535, 65535, 65535, 65535, 65535, 65535, 65535, 65535, 65535], current_battery : 0, current_consumed : 0, energy_consumed : 0, battery_remaining : 100, time_remaining : 0, charge_state : 1, voltages_ext : [0, 0, 0, 0], mode : 0, fault_bitmask : 0}
----------------------------------------------------------------------------------
GLOBAL_POSITION_INT {time_boot_ms : 1081469, lat : 356133414, lon : -974658349, alt : 368490, relative_alt : 1971, vx : 132, vy : -25, vz : 17, hdg : 3848}
----------------------------------------------------------------------------------
ATTITUDE {time_boot_ms : 1081534, roll : 0.01576077565550804, pitch : -0.14358551800251007, yaw : 0.6839719414710999, rollspeed : 0.31878095865249634, pitchspeed : 0.311755895614624, yawspeed : 0.13441726565361023}
----------------------------------------------------------------------------------
VFR_HUD {airspeed : 1.4221407175064087, groundspeed : 1.4203662872314453, heading : 39, throttle : 0, alt : 368.4700012207031, climb : -0.07102163881063461}
